[{"object":{"name":"Edwin and Anita Lee Newcomer School","type":"Point","coordinates":[-122.4040004611,37.7947517878]}},{"object":{"name":"Chinese Education Center Elementary School","type":"Point","coordinates":[-122.4042043521,37.7947566637]}},{"object":{"name":"John Yehall Chin Elementary School","type":"Point","coordinates":[-122.4032114983,37.7984121633]}},{"object":{"name":"Saint Mary's School","type":"Point","coordinates":[-122.4049687386,37.7958390892]}},{"object":{"name":"Nam Kue Chinese School","type":"Point","coordinates":[-122.405458,37.793196]}},{"object":{"name":"Ecole Notre Dame des Victoires","type":"Point","coordinates":[-122.406354,37.791159]}},{"object":{"name":"Gordon J Lau Elementary","type":"Point","coordinates":[-122.4089428007,37.7941303816]}},{"object":{"name":"Garfield Elementary School","type":"Point","coordinates":[-122.4068219565,37.8020441174]}},{"object":{"name":"Jean Parker Elementary","type":"Point","coordinates":[-122.411043,37.797641]}},{"object":{"name":"Cathedral School for Boys","type":"Point","coordinates":[-122.4144037362,37.7921275577]}}]