[{"object":{"name":"St. Mary's International Preschool","type":"Point","coordinates":[-122.404742,37.795976]}},{"object":{"name":"True Sunshine Preschool Center","type":"Point","coordinates":[-122.407899,37.793056]}},{"object":{"name":"Bright Horizons at Spear Street","type":"Point","coordinates":[-122.3925358135,37.7907865028]}},{"object":{"name":"Bright Horizons at 1700 Montgomery Street","type":"Point","coordinates":[-122.404693,37.805206]}},{"object":{"name":"Kids by the Bay - Financial District","type":"Point","coordinates":[-122.398037,37.785471]}},{"object":{"name":"Bright Horizons at 2nd Street","type":"Point","coordinates":[-122.3948994,37.7848078]}},{"object":{"name":"L'academy Language Immersion Preschool","type":"Point","coordinates":[-122.411768,37.801251]}}]